[
  {
    "codigo": "472761E6",
    "nombre": "HUARMACA",
    "lat": -5.5659,
    "lon": -79.5254
  },
  {
    "codigo": "47E1F02E",
    "nombre": "TUNEL CHOTANO",
    "lat": -6.54049,
    "lon": -78.78432
  },
  {
    "codigo": "47201542",
    "nombre": "TONGORRAPE",
    "lat": -6.06692,
    "lon": -79.68203
  },
  {
    "codigo": "4724D566",
    "nombre": "CIRATO",
    "lat": -6.65583,
    "lon": -79.07384
  },
  {
    "codigo": "472606FA",
    "nombre": "AYABACA",
    "lat": -4.63776,
    "lon": -79.71077
  },
  {
    "codigo": "4727F484",
    "nombre": "CHUGUR",
    "lat": -6.66878,
    "lon": -78.738
  },
  {
    "codigo": "4727470A",
    "nombre": "PUENTE CHILETE",
    "lat": -7.21968,
    "lon": -78.83798
  },
  {
    "codigo": "472FF022",
    "nombre": "SAPILLICA",
    "lat": -4.79639,
    "lon": -79.99972
  },
  {
    "codigo": "472F50DA",
    "nombre": "EL VIRREY",
    "lat": -5.53579,
    "lon": -79.98416
  },
  {
    "codigo": "472F86B2",
    "nombre": "CANCHAQUE",
    "lat": -5.40055,
    "lon": -79.6052
  },
  {
    "codigo": "472FA05E",
    "nombre": "MALACASI",
    "lat": -5.33977,
    "lon": -79.85794
  },
  {
    "codigo": "47E94706",
    "nombre": "HUAMBOS",
    "lat": -6.45364,
    "lon": -78.96319
  },
  {
    "codigo": "472C92CA",
    "nombre": "CASCABAMBA",
    "lat": -7.38407,
    "lon": -78.72682
  },
  {
    "codigo": "472F6540",
    "nombre": "CHULUCANAS",
    "lat": -5.10844,
    "lon": -80.16954
  },
  {
    "codigo": "472F7636",
    "nombre": "MORROPON",
    "lat": -5.19465,
    "lon": -79.97107
  },
  {
    "codigo": "472FB328",
    "nombre": "CHALACO",
    "lat": -5.03389,
    "lon": -79.83
  },
  {
    "codigo": "472FE354",
    "nombre": "HUANCABAMBA",
    "lat": -5.24681,
    "lon": -79.45399
  },
  {
    "codigo": "472F00A6",
    "nombre": "CABO INGA M",
    "lat": -3.97594,
    "lon": -80.40182
  },
  {
    "codigo": "472F95C4",
    "nombre": "HACIENDA BIGOTE",
    "lat": -5.32089,
    "lon": -79.78569
  },
  {
    "codigo": "47E281B0",
    "nombre": "HUALCUY",
    "lat": -4.74701,
    "lon": -79.60729
  },
  {
    "codigo": "472FC5B8",
    "nombre": "PAIMAS",
    "lat": -4.63439,
    "lon": -79.94581
  },
  {
    "codigo": "47E3055E",
    "nombre": "CHANCAY BAÑOS",
    "lat": -6.57489,
    "lon": -78.86721
  },
  {
    "codigo": "472FD6CE",
    "nombre": "LANCONES",
    "lat": -4.6429,
    "lon": -80.54716
  },
  {
    "codigo": "472F43AC",
    "nombre": "HUASIMO",
    "lat": -3.99815,
    "lon": -80.50392
  },
  {
    "codigo": "4726706A",
    "nombre": "SAN IGNACIO",
    "lat": -5.14422,
    "lon": -78.99989
  },
  {
    "codigo": "472680EE",
    "nombre": "BAMBAMARCA M",
    "lat": -6.67981,
    "lon": -78.52346
  },
  {
    "codigo": "47269398",
    "nombre": "JAEN",
    "lat": -5.67667,
    "lon": -78.77418
  },
  {
    "codigo": "4726A602",
    "nombre": "CUTERVO",
    "lat": -6.37914,
    "lon": -78.81339
  },
  {
    "codigo": "4726C3E4",
    "nombre": "CHOTA",
    "lat": -6.55405,
    "lon": -78.67588
  },
  {
    "codigo": "472D4658",
    "nombre": "COSPAN",
    "lat": -7.42856,
    "lon": -78.54106
  },
  {
    "codigo": "472EA2A4",
    "nombre": "CASCAS",
    "lat": -7.47987,
    "lon": -78.82367
  },
  {
    "codigo": "472F13D0",
    "nombre": "CAÑAVERAL",
    "lat": -3.93905,
    "lon": -80.65055
  },
  {
    "codigo": "47E35522",
    "nombre": "LA MUCHALA",
    "lat": -6.47998,
    "lon": -79.22406
  },
  {
    "codigo": "105130",
    "nombre": "CHICHILAPAS",
    "lat": -5.27948,
    "lon": -79.30992
  },
  {
    "codigo": "47E1D6C2",
    "nombre": "PUENTE SAN CARLOS",
    "lat": -6.61515,
    "lon": -79.27136
  },
  {
    "codigo": "47E1E358",
    "nombre": "PUENTE AMBAN",
    "lat": -6.58271,
    "lon": -78.91262
  },
  {
    "codigo": "47E1C5B4",
    "nombre": "CAÑAD",
    "lat": -6.64934,
    "lon": -78.99733
  },
  {
    "codigo": "47E207A4",
    "nombre": "TONGOD",
    "lat": -6.74456,
    "lon": -78.81392
  },
  {
    "codigo": "221008",
    "nombre": "CACAO",
    "lat": -5.88406,
    "lon": -78.96256
  },
  {
    "codigo": "106140",
    "nombre": "VISTA FLORIDA",
    "lat": -6.72775,
    "lon": -79.78088
  }
]